[
 
  { "id": 1, "name": "Лукойл", "category": "АЗС", "address": "Москва, Ленинградское ш. 12", "avgCheck": 3900, "cbCategory": "active", "brand": "lukoil", "cashback": 7, "lat": 55.8541, "lon": 37.4701 },
  { "id": 2, "name": "Татнефть", "category": "АЗС", "address": "Москва, МКАД 65 км", "avgCheck": 3900, "cbCategory": "active", "brand": "tatneft", "cashback": 7, "lat": 55.6512, "lon": 37.8122 },
  { "id": 3, "name": "Лукойл", "category": "АЗС", "address": "Москва, Варшавское ш. 98", "avgCheck": 3900, "cbCategory": "active", "brand": "lukoil", "cashback": 7, "lat": 55.5904, "lon": 37.6119 },
  { "id": 4, "name": "Газпромнефть", "category": "АЗС", "address": "Москва, Каширское ш. 61", "avgCheck": 3900, "cbCategory": "active", "brand": "gpn", "cashback": 7, "lat": 55.6152, "lon": 37.7321 },
  { "id": 5, "name": "Газпромнефть", "category": "АЗС", "address": "Москва, Волгоградский пр. 32", "avgCheck": 3900, "cbCategory": "active", "brand": "gpn", "cashback": 7, "lat": 55.7123, "lon": 37.7282 },
  { "id": 6, "name": "Лукойл", "category": "АЗС", "address": "Москва, Алтуфьевское ш. 2", "avgCheck": 3900, "cbCategory": "active", "brand": "lukoil", "cashback": 7, "lat": 55.8821, "lon": 37.5823 },
  { "id": 7, "name": "Татнефть", "category": "АЗС", "address": "Москва, Кутузовский пр. 88", "avgCheck": 3900, "cbCategory": "active", "brand": "tatneft", "cashback": 7, "lat": 55.7312, "lon": 37.4501 },
  { "id": 8, "name": "Газпромнефть", "category": "АЗС", "address": "Москва, Ярославское ш. 112", "avgCheck": 3900, "cbCategory": "active", "brand": "gpn", "cashback": 7, "lat": 55.8753, "lon": 37.7281 },
  { "id": 9, "name": "Лукойл", "category": "АЗС", "address": "Москва, Дмитровское ш. 131", "avgCheck": 3900, "cbCategory": "active", "brand": "lukoil", "cashback": 7, "lat": 55.9071, "lon": 37.5533 },
  { "id": 10, "name": "Татнефть", "category": "АЗС", "address": "Москва, Рублевское ш. 42", "avgCheck": 3900, "cbCategory": "active", "brand": "tatneft", "cashback": 7, "lat": 55.7653, "lon": 37.3921 },

  { "id": 11, "name": "Лукойл", "category": "АЗС", "address": "Москва, Мичуринский пр. 12", "avgCheck": 3900, "cbCategory": "active", "brand": "lukoil", "cashback": 7, "lat": 55.7029, "lon": 37.5031 },
  { "id": 12, "name": "Газпромнефть", "category": "АЗС", "address": "Москва, Щёлковское ш. 55", "avgCheck": 3900, "cbCategory": "active", "brand": "gpn", "cashback": 7, "lat": 55.8128, "lon": 37.8174 },
  { "id": 13, "name": "Татнефть", "category": "АЗС", "address": "Москва, Ленинский пр. 147", "avgCheck": 3900, "cbCategory": "active", "brand": "tatneft", "cashback": 7, "lat": 55.6282, "lon": 37.4856 },
  { "id": 14, "name": "Лукойл", "category": "АЗС", "address": "Москва, Севастопольский пр. 45", "avgCheck": 3900, "cbCategory": "active", "brand": "lukoil", "cashback": 7, "lat": 55.6503, "lon": 37.5871 },
  { "id": 15, "name": "Газпромнефть", "category": "АЗС", "address": "Москва, Новорязанское ш. 23", "avgCheck": 3900, "cbCategory": "active", "brand": "gpn", "cashback": 7, "lat": 55.7118, "lon": 37.8199 },

  { "id": 16, "name": "Лукойл", "category": "АЗС", "address": "Москва, Бусиновская горка 3", "avgCheck": 3900, "cbCategory": "active", "brand": "lukoil", "cashback": 7, "lat": 55.8838, "lon": 37.5202 },
  { "id": 17, "name": "Газпромнефть", "category": "АЗС", "address": "Москва, МКАД 38 км", "avgCheck": 3900, "cbCategory": "active", "brand": "gpn", "cashback": 7, "lat": 55.8361, "lon": 37.3802 },
  { "id": 18, "name": "Татнефть", "category": "АЗС", "address": "Москва, Новорижское ш. 24", "avgCheck": 3900, "cbCategory": "active", "brand": "tatneft", "cashback": 7, "lat": 55.7913, "lon": 37.1541 },
  { "id": 19, "name": "Лукойл", "category": "АЗС", "address": "Москва, Комсомольский пр. 12", "avgCheck": 3900, "cbCategory": "active", "brand": "lukoil", "cashback": 7, "lat": 55.7324, "lon": 37.5898 },
  { "id": 20, "name": "Газпромнефть", "category": "АЗС", "address": "Москва, Профсоюзная 124", "avgCheck": 3900, "cbCategory": "active", "brand": "gpn", "cashback": 7, "lat": 55.6055, "lon": 37.5121 },

  { "id": 21, "name": "Татнефть", "category": "АЗС", "address": "Москва, Новодмитровская 7", "avgCheck": 3900, "cbCategory": "active", "brand": "tatneft", "cashback": 7, "lat": 55.8051, "lon": 37.5838 },
  { "id": 22, "name": "Газпромнефть", "category": "АЗС", "address": "Москва, Люблинская 76", "avgCheck": 3900, "cbCategory": "active", "brand": "gpn", "cashback": 7, "lat": 55.6731, "lon": 37.7332 },
  { "id": 23, "name": "Лукойл", "category": "АЗС", "address": "Москва, Звенигородское ш. 8", "avgCheck": 3900, "cbCategory": "active", "brand": "lukoil", "cashback": 7, "lat": 55.7643, "lon": 37.5255 },
  { "id": 24, "name": "Татнефть", "category": "АЗС", "address": "Москва, Хорошёвское ш. 33", "avgCheck": 3900, "cbCategory": "active", "brand": "tatneft", "cashback": 7, "lat": 55.7801, "lon": 37.5127 },
  { "id": 25, "name": "Газпромнефть", "category": "АЗС", "address": "Москва, Панфилова 12", "avgCheck": 3900, "cbCategory": "active", "brand": "gpn", "cashback": 7, "lat": 55.7909, "lon": 37.4918 },


  { "id": 26, "name": "Шоколадница", "category": "Рестораны", "address": "Москва, Тверская 5", "avgCheck": 850, "cbCategory": "fastfood", "brand": "shoko", "cashback": 5, "lat": 55.7591, "lon": 37.6124 },
  { "id": 27, "name": "Остерия Марио", "category": "Рестораны", "address": "Москва, Проспект Вернадского 6", "avgCheck": 1200, "cbCategory": "fastfood", "brand": "mario", "cashback": 5, "lat": 55.6772, "lon": 37.5051 },
  { "id": 28, "name": "Бургер Кинг", "category": "Рестораны", "address": "Москва, Арбат 22", "avgCheck": 600, "cbCategory": "fastfood", "brand": "bk", "cashback": 5, "lat": 55.7472, "lon": 37.5930 },
  { "id": 29, "name": "KFC", "category": "Рестораны", "address": "Москва, Сокол 5", "avgCheck": 550, "cbCategory": "fastfood", "brand": "kfc", "cashback": 5, "lat": 55.8044, "lon": 37.5281 },
  { "id": 30, "name": "Чайхона №1", "category": "Рестораны", "address": "Москва, Новослободская 45", "avgCheck": 1500, "cbCategory": "fastfood", "brand": "chaihona", "cashback": 5, "lat": 55.7955, "lon": 37.6032 },

  { "id": 31, "name": "IL Патио", "category": "Рестораны", "address": "Москва, Цветной бульвар 17", "avgCheck": 1400, "cbCategory": "fastfood", "brand": "patio", "cashback": 5, "lat": 55.7720, "lon": 37.6205 },
  { "id": 32, "name": "Суши Wok", "category": "Рестораны", "address": "Москва, Преображенская 19", "avgCheck": 900, "cbCategory": "fastfood", "brand": "sushiwok", "cashback": 5, "lat": 55.7982, "lon": 37.7155 },
  { "id": 33, "name": "Тануки", "category": "Рестораны", "address": "Москва, Беговая 9", "avgCheck": 1600, "cbCategory": "fastfood", "brand": "tanuki", "cashback": 5, "lat": 55.7732, "lon": 37.5421 },
  { "id": 34, "name": "Вкусно — и точка", "category": "Рестораны", "address": "Москва, Бауманская 32", "avgCheck": 520, "cbCategory": "fastfood", "brand": "vkusno", "cashback": 5, "lat": 55.7731, "lon": 37.6799 },
  { "id": 35, "name": "Хлеб Насущный", "category": "Рестораны", "address": "Москва, Мясницкая 18", "avgCheck": 900, "cbCategory": "fastfood", "brand": "hleb", "cashback": 5, "lat": 55.7631, "lon": 37.6342 },

  { "id": 36, "name": "Шоколадница", "category": "Рестораны", "address": "Москва, Профсоюзная 44", "avgCheck": 850, "cbCategory": "fastfood", "brand": "shoko", "cashback": 5, "lat": 55.6582, "lon": 37.5612 },
  { "id": 37, "name": "Остерия Марио", "category": "Рестораны", "address": "Москва, Лубянка 9", "avgCheck": 1200, "cbCategory": "fastfood", "brand": "mario", "cashback": 5, "lat": 55.7601, "lon": 37.6265 },
  { "id": 38, "name": "KFC", "category": "Рестораны", "address": "Москва, Савёловская 3", "avgCheck": 550, "cbCategory": "fastfood", "brand": "kfc", "cashback": 5, "lat": 55.7924, "lon": 37.5882 },
  { "id": 39, "name": "Бургер Кинг", "category": "Рестораны", "address": "Москва, Университетский пр. 15", "avgCheck": 600, "cbCategory": "fastfood", "brand": "bk", "cashback": 5, "lat": 55.6829, "lon": 37.5138 },
  { "id": 40, "name": "Тануки", "category": "Рестораны", "address": "Москва, Киевская 2", "avgCheck": 1600, "cbCategory": "fastfood", "brand": "tanuki", "cashback": 5, "lat": 55.7453, "lon": 37.5661 },


  { "id": 51, "name": "Спортмастер", "category": "Спорт", "address": "Москва, ТЦ Европейский", "avgCheck": 3200, "cbCategory": "sport", "brand": "sportmaster", "cashback": 5, "lat": 55.7449, "lon": 37.5651 },
  { "id": 52, "name": "Декатлон", "category": "Спорт", "address": "Москва, Крылатское 3", "avgCheck": 2800, "cbCategory": "sport", "brand": "decathlon", "cashback": 5, "lat": 55.7561, "lon": 37.4064 },
  { "id": 53, "name": "Спортмастер", "category": "Спорт", "address": "Москва, Автозаводская 18", "avgCheck": 3100, "cbCategory": "sport", "brand": "sportmaster", "cashback": 5, "lat": 55.7073, "lon": 37.6619 },
  { "id": 54, "name": "Декатлон", "category": "Спорт", "address": "Москва, Свиблово 7", "avgCheck": 2800, "cbCategory": "sport", "brand": "decathlon", "cashback": 5, "lat": 55.8542, "lon": 37.6502 },
  { "id": 55, "name": "Спортмастер", "category": "Спорт", "address": "Москва, Чертаново 22", "avgCheck": 3200, "cbCategory": "sport", "brand": "sportmaster", "cashback": 5, "lat": 55.5821, "lon": 37.5966 },

  { "id": 56, "name": "Декатлон", "category": "Спорт", "address": "Москва, Бутово 9", "avgCheck": 2800, "cbCategory": "sport", "brand": "decathlon", "cashback": 5, "lat": 55.5390, "lon": 37.5522 },
  { "id": 57, "name": "Спортмастер", "category": "Спорт", "address": "Москва, Лефортово 11", "avgCheck": 3100, "cbCategory": "sport", "brand": "sportmaster", "cashback": 5, "lat": 55.7574, "lon": 37.7012 },
  { "id": 58, "name": "Декатлон", "category": "Спорт", "address": "Москва, Отрадное 14", "avgCheck": 2800, "cbCategory": "sport", "brand": "decathlon", "cashback": 5, "lat": 55.8642, "lon": 37.6067 },
  { "id": 59, "name": "Спортмастер", "category": "Спорт", "address": "Москва, Марьино 3", "avgCheck": 3200, "cbCategory": "sport", "brand": "sportmaster", "cashback": 5, "lat": 55.6521, "lon": 37.7432 },
  { "id": 60, "name": "Декатлон", "category": "Спорт", "address": "Москва, Новокосино 4", "avgCheck": 2800, "cbCategory": "sport", "brand": "decathlon", "cashback": 5, "lat": 55.7402, "lon": 37.8561 },


  { "id": 76, "name": "Синема Парк", "category": "Развлечения", "address": "Москва, ТРК VEGAS", "avgCheck": 1200, "cbCategory": "active", "brand": "cinema", "cashback": 5, "lat": 55.5782, "lon": 37.6903 },
  { "id": 77, "name": "Киномакс", "category": "Развлечения", "address": "Москва, ТЦ XL", "avgCheck": 1300, "cbCategory": "active", "brand": "kinomax", "cashback": 5, "lat": 55.8882, "lon": 37.4532 },
  { "id": 78, "name": "Москино", "category": "Развлечения", "address": "Москва, Чистые пруды 7", "avgCheck": 900, "cbCategory": "active", "brand": "moskino", "cashback": 5, "lat": 55.7621, "lon": 37.6423 },
  { "id": 79, "name": "Каток ВДНХ", "category": "Развлечения", "address": "Москва, ВДНХ", "avgCheck": 700, "cbCategory": "active", "brand": "vdnh", "cashback": 5, "lat": 55.8333, "lon": 37.6295 },
  { "id": 80, "name": "Боулинг Клуб", "category": "Развлечения", "address": "Москва, Крылатское 1", "avgCheck": 1400, "cbCategory": "active", "brand": "bowling", "cashback": 5, "lat": 55.7591, "lon": 37.4062 },
  { "id": 81, "name": "Кидбург", "category": "Развлечения", "address": "Москва, Авиапарк", "avgCheck": 1100, "cbCategory": "active", "brand": "kidburg", "cashback": 5, "lat": 55.7902, "lon": 37.5301 },
  { "id": 82, "name": "Картинг Арена", "category": "Развлечения", "address": "Москва, Сокольники 17", "avgCheck": 1700, "cbCategory": "active", "brand": "kart", "cashback": 5, "lat": 55.7961, "lon": 37.6794 },
  { "id": 83, "name": "VR Клуб", "category": "Развлечения", "address": "Москва, Алтуфьево 9", "avgCheck": 1400, "cbCategory": "active", "brand": "vr", "cashback": 5, "lat": 55.8832, "lon": 37.5988 },
  { "id": 84, "name": "Скейт Парк", "category": "Развлечения", "address": "Москва, Лужники", "avgCheck": 600, "cbCategory": "active", "brand": "skate", "cashback": 5, "lat": 55.7202, "lon": 37.5543 },
  { "id": 85, "name": "Батутный Центр", "category": "Развлечения", "address": "Москва, Фили Град", "avgCheck": 900, "cbCategory": "active", "brand": "batut", "cashback": 5, "lat": 55.7461, "lon": 37.5012 },

  { "id": 86, "name": "Квест Комната", "category": "Развлечения", "address": "Москва, Марьино", "avgCheck": 1600, "cbCategory": "active", "brand": "quest", "cashback": 5, "lat": 55.6484, "lon": 37.7442 },
  { "id": 87, "name": "Пейнтбол Клуб", "category": "Развлечения", "address": "Москва, Теплый стан 38", "avgCheck": 2000, "cbCategory": "active", "brand": "paint", "cashback": 5, "lat": 55.6168, "lon": 37.4955 },
  { "id": 88, "name": "Киберспорт Арена", "category": "Развлечения", "address": "Москва, Капотня 21", "avgCheck": 1300, "cbCategory": "active", "brand": "cyber", "cashback": 5, "lat": 55.6453, "lon": 37.7655 },
  { "id": 89, "name": "Аквапарк", "category": "Развлечения", "address": "Москва, Мичуринский пр. 32", "avgCheck": 1800, "cbCategory": "active", "brand": "aqua", "cashback": 5, "lat": 55.6905, "lon": 37.4764 },
  { "id": 90, "name": "Тир", "category": "Развлечения", "address": "Москва, Дмитровское ш. 89", "avgCheck": 900, "cbCategory": "active", "brand": "tir", "cashback": 5, "lat": 55.8801, "lon": 37.5662 },

  { "id": 91, "name": "Парк Развлечений", "category": "Развлечения", "address": "Москва, Измайловский парк", "avgCheck": 1000, "cbCategory": "active", "brand": "park", "cashback": 5, "lat": 55.7913, "lon": 37.7812 },
  { "id": 92, "name": "Батут Арена", "category": "Развлечения", "address": "Москва, Хорошево-Мневники 2", "avgCheck": 950, "cbCategory": "active", "brand": "arena", "cashback": 5, "lat": 55.7775, "lon": 37.4788 },
  { "id": 93, "name": "Центр Настольных Игр", "category": "Развлечения", "address": "Москва, Китай-город 13", "avgCheck": 700, "cbCategory": "active", "brand": "board", "cashback": 5, "lat": 55.7569, "lon": 37.6352 },
  { "id": 94, "name": "Лазертаг", "category": "Развлечения", "address": "Москва, Южнопортовая 22", "avgCheck": 1500, "cbCategory": "active", "brand": "laser", "cashback": 5, "lat": 55.7114, "lon": 37.6892 },
  { "id": 95, "name": "VR Аттракцион", "category": "Развлечения", "address": "Москва, Черемушки 34", "avgCheck": 1300, "cbCategory": "active", "brand": "vr2", "cashback": 5, "lat": 55.6621, "lon": 37.5549 },

  { "id": 96, "name": "Театр Настроения", "category": "Развлечения", "address": "Москва, Таганка 17", "avgCheck": 1600, "cbCategory": "active", "brand": "theatre", "cashback": 5, "lat": 55.7405, "lon": 37.6533 },
  { "id": 97, "name": "Танцевальная Студия", "category": "Развлечения", "address": "Москва, Пресненская 6", "avgCheck": 1100, "cbCategory": "active", "brand": "dance", "cashback": 5, "lat": 55.7483, "lon": 37.5431 },
  { "id": 98, "name": "Караоке Клуб", "category": "Развлечения", "address": "Москва, Маяковская 4", "avgCheck": 1800, "cbCategory": "active", "brand": "karaoke", "cashback": 5, "lat": 55.7702, "lon": 37.5968 },
  { "id": 99, "name": "Игровой Центр", "category": "Развлечения", "address": "Москва, Солнцево 11", "avgCheck": 800, "cbCategory": "active", "brand": "igra", "cashback": 5, "lat": 55.6441, "lon": 37.4351 },
  { "id": 100, "name": "Скалодром", "category": "Развлечения", "address": "Москва, Нагорная 25", "avgCheck": 1600, "cbCategory": "active", "brand": "skala", "cashback": 5, "lat": 55.6763, "lon": 37.6041 }
]
